{"type":"FeatureCollection","features":[{"type":"Feature","properties":{"name_ar":"العدم","name_en":"Al Adam","shabiyaCode":"B1","shabiyaName":"شرق البلاد","kind":"village"},"geometry":{"type":"Point","coordinates":[23.86,31.66]}},{"type":"Feature","properties":{"name_ar":"البردي","name_en":"Bardiya","shabiyaCode":"B1","shabiyaName":"شرق البلاد","kind":"town"},"geometry":{"type":"Point","coordinates":[25.0866,31.7565]}},{"type":"Feature","properties":{"name_ar":"الجغبوب","name_en":"Jaghbub","shabiyaCode":"B1","shabiyaName":"شرق البلاد","kind":"village"},"geometry":{"type":"Point","coordinates":[24.5172,29.7475]}},{"type":"Feature","properties":{"name_ar":"طبرق","name_en":"Tobruk","shabiyaCode":"B1","shabiyaName":"شرق البلاد","kind":"city","population":120000},"geometry":{"type":"Point","coordinates":[23.95,32.0833]}},{"type":"Feature","properties":{"name_ar":"القبة","name_en":"Al Qubbah","shabiyaCode":"B2","shabiyaName":"درنة","kind":"town"},"geometry":{"type":"Point","coordinates":[22.2333,32.7567]}},{"type":"Feature","properties":{"name_ar":"درنة","name_en":"Derna","shabiyaCode":"B2","shabiyaName":"درنة","kind":"city","population":90000},"geometry":{"type":"Point","coordinates":[22.6391,32.7651]}},{"type":"Feature","properties":{"name_ar":"مرتوبة","name_en":"Martuba","shabiyaCode":"B2","shabiyaName":"درنة","kind":"village"},"geometry":{"type":"Point","coordinates":[22.65,32.55]}},{"type":"Feature","properties":{"name_ar":"البيضاء","name_en":"Bayda","shabiyaCode":"B3","shabiyaName":"الجبل الأخضر","kind":"city","population":160000},"geometry":{"type":"Point","coordinates":[21.7551,32.7627]}},{"type":"Feature","properties":{"name_ar":"مساه","name_en":"Massa","shabiyaCode":"B3","shabiyaName":"الجبل الأخضر","kind":"village"},"geometry":{"type":"Point","coordinates":[21.45,32.55]}},{"type":"Feature","properties":{"name_ar":"شحات","name_en":"Shahhat","shabiyaCode":"B3","shabiyaName":"الجبل الأخضر","kind":"town"},"geometry":{"type":"Point","coordinates":[21.8584,32.8222]}},{"type":"Feature","properties":{"name_ar":"سوسة","name_en":"Susah","shabiyaCode":"B3","shabiyaName":"الجبل الأخضر","kind":"town"},"geometry":{"type":"Point","coordinates":[21.9786,32.8965]}},{"type":"Feature","properties":{"name_ar":"الأبيار","name_en":"Al Abyar","shabiyaCode":"B4","shabiyaName":"المرج","kind":"town"},"geometry":{"type":"Point","coordinates":[20.5806,32.1817]}},{"type":"Feature","properties":{"name_ar":"المرج","name_en":"Al Marj","shabiyaCode":"B4","shabiyaName":"المرج","kind":"city","population":85000},"geometry":{"type":"Point","coordinates":[20.827,32.4925]}},{"type":"Feature","properties":{"name_ar":"طلميثة","name_en":"Tolmeitha","shabiyaCode":"B4","shabiyaName":"المرج","kind":"village"},"geometry":{"type":"Point","coordinates":[20.9667,32.7]}},{"type":"Feature","properties":{"name_ar":"توكرة","name_en":"Tukrah","shabiyaCode":"B4","shabiyaName":"المرج","kind":"town"},"geometry":{"type":"Point","coordinates":[20.5833,32.5333]}},{"type":"Feature","properties":{"name_ar":"بنغازي","name_en":"Benghazi","shabiyaCode":"B5","shabiyaName":"بنغازي","kind":"city","population":700000},"geometry":{"type":"Point","coordinates":[20.0667,32.1167]}},{"type":"Feature","properties":{"name_ar":"قمينس","name_en":"Qaminis","shabiyaCode":"B5","shabiyaName":"بنغازي","kind":"town"},"geometry":{"type":"Point","coordinates":[20.0167,31.65]}},{"type":"Feature","properties":{"name_ar":"سلوق","name_en":"Sluq","shabiyaCode":"B5","shabiyaName":"بنغازي","kind":"town"},"geometry":{"type":"Point","coordinates":[20.25,31.6667]}},{"type":"Feature","properties":{"name_ar":"اجدابيا","name_en":"Ajdabiya","shabiyaCode":"B6","shabiyaName":"الواحات","kind":"city","population":100000},"geometry":{"type":"Point","coordinates":[20.2256,30.7556]}},{"type":"Feature","properties":{"name_ar":"أوجلة","name_en":"Awjila","shabiyaCode":"B6","shabiyaName":"الواحات","kind":"town"},"geometry":{"type":"Point","coordinates":[21.2872,29.1083]}},{"type":"Feature","properties":{"name_ar":"البريقة","name_en":"Brega","shabiyaCode":"B6","shabiyaName":"الواحات","kind":"town"},"geometry":{"type":"Point","coordinates":[19.5731,30.4131]}},{"type":"Feature","properties":{"name_ar":"جالو","name_en":"Jalu","shabiyaCode":"B6","shabiyaName":"الواحات","kind":"town"},"geometry":{"type":"Point","coordinates":[21.55,29.0333]}},{"type":"Feature","properties":{"name_ar":"مرادة","name_en":"Marada","shabiyaCode":"B6","shabiyaName":"الواحات","kind":"village"},"geometry":{"type":"Point","coordinates":[19.205,29.24]}},{"type":"Feature","properties":{"name_ar":"الكفرة","name_en":"Kufra","shabiyaCode":"B7","shabiyaName":"الكفرة","kind":"town","population":40000},"geometry":{"type":"Point","coordinates":[23.3144,24.1781]}},{"type":"Feature","properties":{"name_ar":"ربيانة","name_en":"Rabyana","shabiyaCode":"B7","shabiyaName":"الكفرة","kind":"village"},"geometry":{"type":"Point","coordinates":[22,24.1]}},{"type":"Feature","properties":{"name_ar":"تازربو","name_en":"Tazirbu","shabiyaCode":"B7","shabiyaName":"الكفرة","kind":"village"},"geometry":{"type":"Point","coordinates":[21.05,25.7167]}},{"type":"Feature","properties":{"name_ar":"هون","name_en":"Hun","shabiyaCode":"F17","shabiyaName":"الجفرة","kind":"town"},"geometry":{"type":"Point","coordinates":[15.9438,29.1273]}},{"type":"Feature","properties":{"name_ar":"سوكنة","name_en":"Sokna","shabiyaCode":"F17","shabiyaName":"الجفرة","kind":"town"},"geometry":{"type":"Point","coordinates":[15.751,29.0699]}},{"type":"Feature","properties":{"name_ar":"ودان","name_en":"Waddan","shabiyaCode":"F17","shabiyaName":"الجفرة","kind":"town"},"geometry":{"type":"Point","coordinates":[16.1389,29.1614]}},{"type":"Feature","properties":{"name_ar":"زلة","name_en":"Zillah","shabiyaCode":"F17","shabiyaName":"الجفرة","kind":"village"},"geometry":{"type":"Point","coordinates":[17.5878,28.5547]}},{"type":"Feature","properties":{"name_ar":"براك","name_en":"Brak","shabiyaCode":"F18","shabiyaName":"وادي الشاطئ","kind":"town"},"geometry":{"type":"Point","coordinates":[14.2731,27.55]}},{"type":"Feature","properties":{"name_ar":"إدري","name_en":"Idri","shabiyaCode":"F18","shabiyaName":"وادي الشاطئ","kind":"town"},"geometry":{"type":"Point","coordinates":[13.05,27.45]}},{"type":"Feature","properties":{"name_ar":"أوينات","name_en":"Awinat","shabiyaCode":"F19","shabiyaName":"سبها","kind":"village"},"geometry":{"type":"Point","coordinates":[14.45,26.66]}},{"type":"Feature","properties":{"name_ar":"غدوة","name_en":"Ghaddwah","shabiyaCode":"F19","shabiyaName":"سبها","kind":"village"},"geometry":{"type":"Point","coordinates":[14.2956,26.4308]}},{"type":"Feature","properties":{"name_ar":"سبها","name_en":"Sabha","shabiyaCode":"F19","shabiyaName":"سبها","kind":"city","population":130000},"geometry":{"type":"Point","coordinates":[14.4283,27.0377]}},{"type":"Feature","properties":{"name_ar":"جرمة","name_en":"Germa","shabiyaCode":"F20","shabiyaName":"وادي الحياة","kind":"village"},"geometry":{"type":"Point","coordinates":[13.0808,26.5314]}},{"type":"Feature","properties":{"name_ar":"أوباري","name_en":"Ubari","shabiyaCode":"F20","shabiyaName":"وادي الحياة","kind":"city"},"geometry":{"type":"Point","coordinates":[12.7822,26.5919]}},{"type":"Feature","properties":{"name_ar":"العوينات","name_en":"Al Awaynat","shabiyaCode":"F21","shabiyaName":"غات","kind":"town"},"geometry":{"type":"Point","coordinates":[10.5739,25.7919]}},{"type":"Feature","properties":{"name_ar":"البركت","name_en":"Barkat","shabiyaCode":"F21","shabiyaName":"غات","kind":"village"},"geometry":{"type":"Point","coordinates":[10.5,24.9]}},{"type":"Feature","properties":{"name_ar":"غات","name_en":"Ghat","shabiyaCode":"F21","shabiyaName":"غات","kind":"city"},"geometry":{"type":"Point","coordinates":[10.1833,24.9667]}},{"type":"Feature","properties":{"name_ar":"تاهالة","name_en":"Tahala","shabiyaCode":"F21","shabiyaName":"غات","kind":"village"},"geometry":{"type":"Point","coordinates":[10.5,25.5]}},{"type":"Feature","properties":{"name_ar":"القطرون","name_en":"Al Qatrun","shabiyaCode":"F22","shabiyaName":"مرزق","kind":"town"},"geometry":{"type":"Point","coordinates":[14.6469,24.9492]}},{"type":"Feature","properties":{"name_ar":"مرزق","name_en":"Murzuq","shabiyaCode":"F22","shabiyaName":"مرزق","kind":"city"},"geometry":{"type":"Point","coordinates":[13.9183,25.9156]}},{"type":"Feature","properties":{"name_ar":"تمسة","name_en":"Tmessah","shabiyaCode":"F22","shabiyaName":"مرزق","kind":"village"},"geometry":{"type":"Point","coordinates":[15.7167,26.3667]}},{"type":"Feature","properties":{"name_ar":"تراغن","name_en":"Traghan","shabiyaCode":"F22","shabiyaName":"مرزق","kind":"village"},"geometry":{"type":"Point","coordinates":[14.4506,26.0028]}},{"type":"Feature","properties":{"name_ar":"أم الأرانب","name_en":"Umm al Aranib","shabiyaCode":"F22","shabiyaName":"مرزق","kind":"village"},"geometry":{"type":"Point","coordinates":[14.8528,26.075]}},{"type":"Feature","properties":{"name_ar":"زويلة","name_en":"Zuwila","shabiyaCode":"F22","shabiyaName":"مرزق","kind":"village"},"geometry":{"type":"Point","coordinates":[15.1167,26.1681]}},{"type":"Feature","properties":{"name_ar":"بني وليد","name_en":"Bani Walid","shabiyaCode":"T10","shabiyaName":"مصراتة","kind":"city","population":95000},"geometry":{"type":"Point","coordinates":[13.9833,31.75]}},{"type":"Feature","properties":{"name_ar":"مصراتة","name_en":"Misrata","shabiyaCode":"T10","shabiyaName":"مصراتة","kind":"city","population":280000},"geometry":{"type":"Point","coordinates":[15.0925,32.3754]}},{"type":"Feature","properties":{"name_ar":"تاورغاء","name_en":"Tawergha","shabiyaCode":"T10","shabiyaName":"مصراتة","kind":"town"},"geometry":{"type":"Point","coordinates":[15.05,32.0167]}},{"type":"Feature","properties":{"name_ar":"الخمس","name_en":"Al Khoms","shabiyaCode":"T11","shabiyaName":"المرقب","kind":"city","population":200000},"geometry":{"type":"Point","coordinates":[14.2619,32.6486]}},{"type":"Feature","properties":{"name_ar":"كعام","name_en":"Kaam","shabiyaCode":"T11","shabiyaName":"المرقب","kind":"village"},"geometry":{"type":"Point","coordinates":[14.39,32.51]}},{"type":"Feature","properties":{"name_ar":"مسلاتة","name_en":"Masallata","shabiyaCode":"T11","shabiyaName":"المرقب","kind":"town"},"geometry":{"type":"Point","coordinates":[14.0061,32.6294]}},{"type":"Feature","properties":{"name_ar":"ترهونة","name_en":"Tarhuna","shabiyaCode":"T11","shabiyaName":"المرقب","kind":"city","population":200000},"geometry":{"type":"Point","coordinates":[13.6332,32.435]}},{"type":"Feature","properties":{"name_ar":"زليتن","name_en":"Zliten","shabiyaCode":"T11","shabiyaName":"المرقب","kind":"city","population":240000},"geometry":{"type":"Point","coordinates":[14.5687,32.4674]}},{"type":"Feature","properties":{"name_ar":"أبو سليم","name_en":"Abu Salim","shabiyaCode":"T12","shabiyaName":"طرابلس","kind":"town"},"geometry":{"type":"Point","coordinates":[13.18,32.85]}},{"type":"Feature","properties":{"name_ar":"قصر بن غشير","name_en":"Qasr Bin Ghashir","shabiyaCode":"T12","shabiyaName":"طرابلس","kind":"town"},"geometry":{"type":"Point","coordinates":[13.2342,32.6411]}},{"type":"Feature","properties":{"name_ar":"تاجوراء","name_en":"Tajura","shabiyaCode":"T12","shabiyaName":"طرابلس","kind":"town"},"geometry":{"type":"Point","coordinates":[13.35,32.88]}},{"type":"Feature","properties":{"name_ar":"طرابلس","name_en":"Tripoli","shabiyaCode":"T12","shabiyaName":"طرابلس","kind":"city","population":1126000},"geometry":{"type":"Point","coordinates":[13.1913,32.8872]}},{"type":"Feature","properties":{"name_ar":"العزيزية","name_en":"Al Aziziyah","shabiyaCode":"T13","shabiyaName":"الجفارة","kind":"city"},"geometry":{"type":"Point","coordinates":[13.0167,32.5333]}},{"type":"Feature","properties":{"name_ar":"السواني","name_en":"Suani Bin Adam","shabiyaCode":"T13","shabiyaName":"الجفارة","kind":"town"},"geometry":{"type":"Point","coordinates":[13.05,32.45]}},{"type":"Feature","properties":{"name_ar":"العجيلات","name_en":"Al Ajaylat","shabiyaCode":"T14","shabiyaName":"الزاوية","kind":"town"},"geometry":{"type":"Point","coordinates":[12.3833,32.76]}},{"type":"Feature","properties":{"name_ar":"الزاوية","name_en":"Az Zawiya","shabiyaCode":"T14","shabiyaName":"الزاوية","kind":"city","population":290000},"geometry":{"type":"Point","coordinates":[12.7278,32.7522]}},{"type":"Feature","properties":{"name_ar":"بئر الغنم","name_en":"Bir al Ghanam","shabiyaCode":"T14","shabiyaName":"الزاوية","kind":"village"},"geometry":{"type":"Point","coordinates":[12.74,32.45]}},{"type":"Feature","properties":{"name_ar":"جنزور","name_en":"Janzur","shabiyaCode":"T14","shabiyaName":"الزاوية","kind":"town"},"geometry":{"type":"Point","coordinates":[13.0167,32.8133]}},{"type":"Feature","properties":{"name_ar":"صبراتة","name_en":"Sabratha","shabiyaCode":"T14","shabiyaName":"الزاوية","kind":"city","population":100000},"geometry":{"type":"Point","coordinates":[12.4886,32.7933]}},{"type":"Feature","properties":{"name_ar":"صرمان","name_en":"Sirman","shabiyaCode":"T14","shabiyaName":"الزاوية","kind":"town"},"geometry":{"type":"Point","coordinates":[12.5689,32.7253]}},{"type":"Feature","properties":{"name_ar":"زوارة","name_en":"Zuwarah","shabiyaCode":"T14","shabiyaName":"الزاوية","kind":"city","population":45000},"geometry":{"type":"Point","coordinates":[12.082,32.9311]}},{"type":"Feature","properties":{"name_ar":"غريان","name_en":"Gharyan","shabiyaCode":"T15","shabiyaName":"الجبل الغربي","kind":"city","population":170000},"geometry":{"type":"Point","coordinates":[13.0203,32.1722]}},{"type":"Feature","properties":{"name_ar":"جادو","name_en":"Jadu","shabiyaCode":"T15","shabiyaName":"الجبل الغربي","kind":"town"},"geometry":{"type":"Point","coordinates":[12.0247,31.9542]}},{"type":"Feature","properties":{"name_ar":"كاباو","name_en":"Kabaw","shabiyaCode":"T15","shabiyaName":"الجبل الغربي","kind":"village"},"geometry":{"type":"Point","coordinates":[12.0333,31.8333]}},{"type":"Feature","properties":{"name_ar":"مزدة","name_en":"Mizdah","shabiyaCode":"T15","shabiyaName":"الجبل الغربي","kind":"town"},"geometry":{"type":"Point","coordinates":[12.9817,31.4488]}},{"type":"Feature","properties":{"name_ar":"يفرن","name_en":"Yafran","shabiyaCode":"T15","shabiyaName":"الجبل الغربي","kind":"town"},"geometry":{"type":"Point","coordinates":[12.5286,32.0631]}},{"type":"Feature","properties":{"name_ar":"غدامس","name_en":"Ghadames","shabiyaCode":"T16","shabiyaName":"نالوت","kind":"city"},"geometry":{"type":"Point","coordinates":[9.5,30.1333]}},{"type":"Feature","properties":{"name_ar":"نالوت","name_en":"Nalut","shabiyaCode":"T16","shabiyaName":"نالوت","kind":"city","population":25000},"geometry":{"type":"Point","coordinates":[10.9802,31.8746]}},{"type":"Feature","properties":{"name_ar":"سيناون","name_en":"Sinawan","shabiyaCode":"T16","shabiyaName":"نالوت","kind":"village"},"geometry":{"type":"Point","coordinates":[10.6,31.0167]}},{"type":"Feature","properties":{"name_ar":"تيجي","name_en":"Tiji","shabiyaCode":"T16","shabiyaName":"نالوت","kind":"town"},"geometry":{"type":"Point","coordinates":[11.35,32.0167]}},{"type":"Feature","properties":{"name_ar":"النوفلية","name_en":"An Nawfaliya","shabiyaCode":"T8","shabiyaName":"سرت","kind":"town"},"geometry":{"type":"Point","coordinates":[17.9167,30.7667]}},{"type":"Feature","properties":{"name_ar":"بن جواد","name_en":"Bin Jawad","shabiyaCode":"T8","shabiyaName":"سرت","kind":"town"},"geometry":{"type":"Point","coordinates":[18.0944,30.8694]}},{"type":"Feature","properties":{"name_ar":"سرت","name_en":"Sirte","shabiyaCode":"T8","shabiyaName":"سرت","kind":"city","population":130000},"geometry":{"type":"Point","coordinates":[16.5887,31.2089]}},{"type":"Feature","properties":{"name_ar":"أبو هادي","name_en":"Bu Hadi","shabiyaCode":"T9","shabiyaName":"جنوب الخليج","kind":"village"},"geometry":{"type":"Point","coordinates":[16,30.92]}},{"type":"Feature","properties":{"name_ar":"هراوة","name_en":"Harawah","shabiyaCode":"T9","shabiyaName":"جنوب الخليج","kind":"village"},"geometry":{"type":"Point","coordinates":[16.1,30.85]}},{"type":"Feature","properties":{"name_ar":"وادي باي","name_en":"Wadi Bey","shabiyaCode":"T9","shabiyaName":"جنوب الخليج","kind":"village"},"geometry":{"type":"Point","coordinates":[15.85,30.55]}}]}